,City,Cloudiness,Country,Date,Humidity,Lat,Lng,Wind Speed,Max Temp
0,Butaritari,40,KI,1613158266,82,3.0707,172.7902,9.82,80.8
1,Arraial do Cabo,90,BR,1613158095,74,-22.9661,-42.0278,20.71,82.4
2,Cape Town,20,ZA,1613158152,83,-33.9258,18.4232,19.57,72.0
3,Vardø,75,NO,1613158269,92,70.3705,31.1107,13.8,15.8
4,Esperance,19,AU,1613158128,88,-33.8667,121.9,4.61,57.2
5,Anandpur,100,IN,1613158273,46,31.25,76.5,3.91,59.23
6,Hilo,1,US,1613158274,50,19.7297,-155.09,3.27,75.99
7,Busselton,0,AU,1613158276,89,-33.65,115.3333,10.76,57.99
8,Khovd,0,MN,1613158278,84,48.0056,91.6419,1.54,5.94
9,Bluff,100,NZ,1613158280,93,-46.6,168.3333,1.99,51.01
10,Saint-Philippe,40,RE,1613158072,65,-21.3585,55.7679,12.66,80.6
11,Sāmbhar,0,IN,1613158284,48,26.9167,75.2,3.44,64.4
12,Atuona,4,PF,1613158285,78,-9.8,-139.0333,13.6,78.78
13,Bud,90,US,1613158286,63,39.447,-86.1758,3.44,28.0
14,Shihezi,85,CN,1613158288,96,44.3,86.0333,2.01,11.86
15,Jamestown,40,US,1613158289,50,42.097,-79.2353,6.91,28.0
16,Yumen,29,CN,1613158290,72,40.2833,97.2,9.98,34.21
17,Nabire,76,ID,1613158292,88,-3.3667,135.4833,4.18,76.23
18,San Jerónimo,98,PE,1613158293,44,-11.9472,-75.2829,5.32,63.79
19,Warrington,20,GB,1613158197,64,53.3925,-2.5802,16.11,32.0
20,Yellowknife,20,CA,1613158295,76,62.456,-114.3525,2.3,-9.99
21,Itaunja,0,IN,1613158297,94,27.0833,80.9167,3.98,57.2
22,Magadan,100,RU,1613158299,84,59.5667,150.8,5.23,6.42
23,Castro,44,BR,1613158300,80,-24.7911,-50.0119,1.74,71.11
24,Mēga,66,ET,1613158301,71,4.05,38.3,3.31,62.64
25,Tasiilaq,90,GL,1613158303,74,65.6145,-37.6368,28.77,30.2
26,Chokurdakh,50,RU,1613158299,74,70.6333,147.9167,3.44,-21.42
27,Rawson,5,AR,1613158305,59,-43.3002,-65.1023,11.03,72.75
28,Port-Gentil,40,GA,1613158306,79,-0.7193,8.7815,8.05,84.2
29,Broome,90,US,1613158298,45,42.2506,-75.833,5.75,19.99
30,Hasaki,75,JP,1613158240,81,35.7333,140.8333,3.44,41.0
31,Jakar,85,BT,1613158310,78,27.5492,90.7525,1.12,37.2
32,Kapaa,40,US,1613158311,64,22.0752,-159.319,10.36,73.4
33,Albany,98,US,1613158207,34,42.6001,-73.9662,5.1,19.0
34,Narsaq,75,GL,1613158313,29,60.9167,-46.05,35.68,44.6
35,Kloulklubed,75,PW,1613158314,100,7.0419,134.2556,3.44,75.2
36,Bulalacao,87,PH,1613158316,82,12.3254,121.3435,7.72,77.86
37,Mayor Pablo Lagerenza,51,PY,1613158317,50,-19.9309,-60.7718,6.13,85.78
38,Bandarbeyla,100,SO,1613158151,72,9.4942,50.8122,13.58,74.03
39,Ushuaia,20,AR,1613158184,41,-54.8,-68.3,21.85,60.8
40,Katoro,100,TZ,1613158262,91,-3.0203,31.8958,4.63,66.38
41,Acapulco de Juárez,20,MX,1613158322,65,16.8634,-99.8901,9.22,82.4
42,Lieksa,99,FI,1613158323,95,63.3167,30.0167,6.71,7.9
43,At-Bashi,100,KG,1613158324,72,41.1702,75.8106,2.35,20.05
44,Pevek,100,RU,1613158094,89,69.7008,170.3133,5.93,-18.98
45,Eureka,100,US,1613158284,94,40.8021,-124.1637,5.01,52.0
46,Bodden Town,20,KY,1613158328,61,19.2833,-81.25,14.97,84.2
47,Valleyview,99,CA,1613158206,71,55.0667,-117.2859,6.91,-5.8
48,Westport,90,US,1613158247,31,41.1415,-73.3579,5.75,30.99
49,Kieta,100,PG,1613158304,82,-6.2167,155.6333,8.7,79.29
50,Laguna,1,US,1613158094,67,38.421,-121.4238,3.44,57.99
51,Whitefish,1,US,1613158334,46,48.4111,-114.3376,9.22,3.0
52,Port Elizabeth,75,ZA,1613158262,94,-33.918,25.5701,20.71,73.4
53,Tshikapa,100,CD,1613158336,85,-6.4167,20.8,1.3,74.26
54,Kouroussa,2,GN,1613158337,14,10.65,-9.8833,2.55,82.51
55,Hermanus,0,ZA,1613158203,81,-34.4187,19.2345,3.65,72.0
56,Sobolevo,100,RU,1613158340,94,54.4299,31.8996,23.44,8.49
57,Nishihara,20,JP,1613158317,82,26.1842,127.7558,5.75,66.2
58,Santa Maria,40,BR,1613158325,78,-29.6842,-53.8069,2.3,77.0
59,Araouane,0,ML,1613158343,13,18.9048,-3.5265,9.75,79.79
60,Ribeira Grande,20,PT,1613158345,72,38.5167,-28.7,20.71,60.8
61,Rikitea,58,PF,1613158346,72,-23.1203,-134.9692,10.96,79.86
62,Salalah,0,OM,1613158347,49,17.0151,54.0924,3.44,73.4
63,Xining,100,CN,1613158073,95,36.6167,101.7667,2.04,28.98
64,Barrow,40,US,1613158349,70,71.2906,-156.7887,10.36,-11.2
65,Punta Arenas,0,CL,1613158057,41,-53.15,-70.9167,19.57,59.0
66,Padang,90,ID,1613158295,88,-0.9492,100.3543,2.3,75.2
67,Gusinoye Ozero,12,RU,1613158353,80,51.1144,106.2614,2.53,-12.48
68,Inhambane,75,MZ,1613158327,89,-23.865,35.3833,17.27,78.8
69,Geraldton,40,AU,1613158255,60,-28.7667,114.6,6.91,73.4
70,Vestmannaeyjar,75,IS,1613158357,81,63.4427,-20.2734,48.34,41.0
71,Anlu,0,CN,1613158358,88,31.1661,112.5831,3.87,52.43
72,Distrikt Brokopondo,98,SR,1613158359,82,4.75,-55.1667,10.51,80.71
73,Nikolskoye,75,RU,1613158259,78,59.7035,30.7861,6.71,5.0
74,Kaduqli,7,SD,1613158362,18,11.0167,29.7167,7.36,78.12
75,Provideniya,100,RU,1613158075,87,64.3833,-173.3,32.68,-4.65
76,Port Alfred,76,ZA,1613158270,93,-33.5906,26.891,7.0,73.0
77,Qaanaaq,0,GL,1613158365,70,77.484,-69.3632,3.42,-1.75
78,Tuatapere,99,NZ,1613158367,93,-46.1333,167.6833,1.99,51.01
79,Nemuro,98,JP,1613158163,90,43.3236,145.575,6.51,23.09
80,Luganville,97,VU,1613158369,76,-15.5333,167.1667,3.78,78.08
81,Chaman,97,PK,1613158370,36,30.9236,66.4512,2.19,54.86
82,Nanortalik,100,GL,1613158371,87,60.1432,-45.2371,7.49,32.94
83,Cherskiy,0,RU,1613158092,77,68.75,161.3,1.72,-27.65
84,Sawākin,17,SD,1613158374,74,19.1059,37.3321,4.27,77.52
85,Ishigaki,2,JP,1613158375,81,24.3448,124.1572,20.29,70.9
86,Tuktoyaktuk,75,CA,1613158376,71,69.4541,-133.0374,9.22,-0.4
87,Saldanha,0,ZA,1613158377,78,-33.0117,17.9442,12.66,69.8
88,Margate,46,GB,1613158379,60,51.3813,1.3862,5.01,30.0
89,Turbat,0,PK,1613158380,52,26.0023,63.044,1.03,59.27
90,Praia da Vitória,20,PT,1613158381,67,38.7333,-27.0667,15.26,60.8
91,Ilulissat,20,GL,1613158382,66,69.2167,-51.1,3.44,3.2
92,Zacualtipán,87,MX,1613158383,95,20.65,-98.6,5.77,53.06
93,Sakakah,0,SA,1613158385,39,29.9697,40.2064,10.36,64.4
94,Dunda,96,TZ,1613158386,92,-8.1167,34.25,3.49,64.6
95,Tabuk,92,PH,1613158387,84,17.4189,121.4443,4.12,69.13
96,Laas,0,IT,1613158388,67,46.6166,10.7002,4.61,32.0
97,Souillac,40,MU,1613158389,83,-20.5167,57.5167,11.5,77.0
98,Faanui,19,PF,1613158283,74,-16.4833,-151.75,12.8,81.7
99,New Norfolk,47,AU,1613158392,71,-42.7826,147.0587,1.99,57.0
100,Saint George,40,US,1613158362,44,37.1041,-113.5841,4.61,61.0
101,Norman Wells,1,CA,1613158394,77,65.282,-126.8329,5.75,-9.4
102,Kununurra,83,AU,1613158396,100,-15.7667,128.7333,3.49,80.6
103,Santa Lucía,40,ES,1613158397,77,27.9117,-15.5407,18.41,66.2
104,Moyo,39,UG,1613158398,30,3.6609,31.7247,3.09,80.33
105,Fukuechō,97,JP,1613158399,63,32.6881,128.8419,8.61,58.5
106,Rehoboth,100,NA,1613158400,86,-23.3167,17.0833,8.81,65.14
107,Leningradskiy,96,RU,1613158402,82,69.3833,178.4167,8.81,-21.1
108,Mar del Plata,90,AR,1613158369,94,-38.0023,-57.5575,14.97,71.01
109,Coahuayana Viejo,40,MX,1613158404,60,18.7333,-103.6833,8.14,71.6
110,Malye Derbety,100,RU,1613158405,87,47.9547,44.6808,12.64,40.78
111,Gigmoto,55,PH,1613158407,87,13.7796,124.39,8.63,77.63
112,Aginskoye,21,RU,1613158408,83,51.1,114.53,14.63,-6.52
113,Capitão Poço,100,BR,1613158409,88,-1.7464,-47.0594,5.37,81.14
114,Lata,100,PT,1613158146,85,40.1629,-8.3327,1.88,55.99
115,Plettenberg Bay,65,ZA,1613158283,92,-34.0527,23.3716,4.76,71.33
116,Mataura,100,NZ,1613158270,93,-46.1927,168.8643,1.99,51.01
117,Prince Rupert,1,CA,1613158165,29,54.3161,-130.3201,14.97,32.0
118,Daru,100,PG,1613158297,86,-9.0763,143.2092,4.79,78.03
119,Onega,32,RU,1613158416,90,63.9061,38.1404,6.33,-10.73
120,Iqaluit,20,CA,1613158417,77,63.7506,-68.5145,16.11,-4.0
121,Egvekinot,100,RU,1613158419,83,66.3167,-179.1667,19.84,-19.7
122,Vaini,40,TO,1613158267,89,-21.2,-175.2,5.75,80.6
123,Portland,90,US,1613158322,80,45.5234,-122.6762,19.57,27.0
124,Mobaye,4,CF,1613158422,21,4.319,21.1786,0.63,76.03
125,Kabanjahe,20,ID,1613158423,94,3.1001,98.4908,2.3,78.8
126,Clyde River,75,CA,1613158425,84,70.4692,-68.5914,14.97,-4.0
127,Nova Granada,75,BR,1613158426,57,-20.5339,-49.3142,4.61,78.8
128,Suntar,100,RU,1613158427,87,62.1444,117.6319,4.61,-13.41
129,Saskylakh,0,RU,1613158428,82,71.9167,114.0833,3.83,-26.43
130,Verkhotur'ye,100,RU,1613158429,91,58.8627,60.8054,4.47,-2.27
131,Carnarvon,14,AU,1613158431,100,-24.8667,113.6333,9.22,75.2
132,Puerto Ayora,20,EC,1613158432,74,-0.7393,-90.3518,6.91,84.2
133,Camacha,0,PT,1613158433,77,33.0833,-16.3333,5.75,60.8
134,Zyryanka,98,RU,1613158352,85,65.75,150.85,4.32,-27.62
135,Lompoc,20,US,1613158436,62,34.6391,-120.4579,17.27,57.2
136,Ambilobe,100,MG,1613158437,92,-13.2,49.05,1.68,75.49
137,Kudahuvadhoo,91,MV,1613158438,67,2.6708,72.8944,9.28,80.94
138,Sitka,1,US,1613158439,23,57.0531,-135.33,13.8,37.4
139,Hobart,20,AU,1613158440,72,-42.8794,147.3294,6.91,57.2
140,Ihlow,20,DE,1613158442,85,51.8833,13.3333,2.3,21.0
141,Riyadh,0,SA,1613158155,26,24.6877,46.7219,4.61,69.8
142,Kruisfontein,100,ZA,1613158444,76,-34.0033,24.7314,7.0,78.01
143,Ancud,0,CL,1613158445,49,-41.8697,-73.8203,5.75,69.8
144,Augustów,100,PL,1613158446,92,53.8432,22.9798,10.58,10.58
145,Bundaberg,40,AU,1613158338,88,-24.85,152.35,3.15,71.01
146,Labuhan,100,ID,1613158449,86,-6.8844,112.2051,6.06,76.98
147,Thompson,1,CA,1613158450,69,55.7435,-97.8558,3.44,-22.0
148,East Greenwich,40,US,1613158452,90,41.6604,-71.4559,11.5,33.01
149,Tabou,80,CI,1613158342,89,4.423,-7.3528,7.23,79.39
150,Avarua,9,CK,1613158454,74,-21.2078,-159.775,2.3,82.4
151,Mumbwa,100,ZM,1613158455,94,-14.9783,27.0619,4.14,66.74
152,Nago,75,JP,1613158456,94,26.5881,127.9761,8.05,66.2
153,Muisne,40,EC,1613158448,84,0.6,-80.0333,4.61,84.2
154,Papetoai,75,PF,1613158459,69,-17.4961,-149.8729,13.8,82.4
155,Baracoa,28,CU,1613158460,69,20.3467,-74.4958,8.84,80.19
156,Pālampur,94,IN,1613158461,42,32.1167,76.5333,4.47,51.13
157,Tonj,0,SS,1613158462,16,7.2737,28.6822,3.87,82.87
158,Chui,100,UY,1613158463,90,-33.6971,-53.4616,9.53,69.6
159,Bonthe,0,SL,1613158465,79,7.5264,-12.505,9.51,79.79
160,Faya,20,SA,1613158246,72,18.3851,42.4509,4.61,60.8
161,Bella Vista,90,US,1613158367,86,36.4295,-94.2316,10.36,17.6
162,Morant Bay,75,JM,1613158468,65,17.8815,-76.4093,28.77,80.6
163,Alice Town,86,BS,1613158469,80,25.7167,-79.3,12.28,76.01
164,Bat Khela,100,PK,1613158471,34,34.6167,71.9714,5.75,56.93
165,Paita,40,PE,1613158266,46,-5.0892,-81.1144,14.97,91.4
166,Eldorado,18,BR,1613158473,76,-23.7869,-54.2836,3.04,78.44
167,Batemans Bay,100,AU,1613158307,82,-35.7167,150.1833,4.0,64.99
168,Guerrero Negro,99,MX,1613158476,67,27.9769,-114.0611,18.41,62.55
169,Yenagoa,100,NG,1613158477,75,4.9247,6.2642,7.07,80.69
170,Arlit,0,NE,1613158478,16,18.7369,7.3853,12.12,75.76
171,Ferkessédougou,0,CI,1613158479,14,9.6,-5.2,3.18,84.97
172,Lavrentiya,100,RU,1613158481,89,65.5833,-171.0,20.56,-8.73
173,Hithadhoo,100,MV,1613158279,76,-0.6,73.0833,11.54,81.79
174,Sterling,90,US,1613158468,64,39.0062,-77.4286,4.7,32.0
175,Ponta do Sol,2,PT,1613158484,74,32.6667,-17.1,1.99,61.0
176,Northam,49,GB,1613158485,68,51.0333,-4.2167,4.0,34.0
177,Ust'-Kishert',100,RU,1613158486,94,57.3654,57.2495,6.17,7.07
178,Torbay,90,CA,1613158276,86,47.6666,-52.7314,25.32,32.0
179,Shache,0,CN,1613158489,66,38.4167,77.2406,4.56,38.95
180,Isangel,90,VU,1613158490,94,-19.55,169.2667,5.93,77.0
181,Te Anau,96,NZ,1613158491,77,-45.4167,167.7167,3.58,50.52
182,Mogadishu,96,SO,1613158371,80,2.0371,45.3438,22.5,76.64
183,Vzmorye,40,RU,1613158494,92,54.6961,20.2361,4.47,27.0
184,Kristiansund,75,NO,1613158495,43,63.1115,7.732,4.61,26.6
185,Gari,100,RU,1613158496,92,59.4307,62.3497,5.08,-2.88
186,Paamiut,100,GL,1613158498,92,61.994,-49.6678,20.29,24.17
187,Fortuna,75,US,1613158499,100,40.5982,-124.1573,8.05,51.01
188,São Filipe,26,CV,1613158500,67,14.8961,-24.4956,13.69,73.26
189,Husavik,20,IS,1613158501,69,66.0449,-17.3389,13.8,32.0
190,Tiksi,3,RU,1613158505,90,71.6872,128.8694,0.85,-11.7
191,Codrington,29,AU,1613158507,87,-38.2667,141.9667,7.81,57.58
192,Upernavik,0,GL,1613158508,79,72.7868,-56.1549,7.38,0.55
193,Lampazos de Naranjo,92,MX,1613158509,55,27.0167,-100.5167,8.23,48.18
194,Languyan,92,PH,1613158510,82,5.2618,120.0807,7.63,79.83
195,Ciudad Ojeda,0,VE,1613158511,51,10.1964,-71.3082,5.59,87.26
196,Shwebo,38,MM,1613158513,45,22.5667,95.7,1.74,65.97
197,Hurghada,0,EG,1613158514,37,27.2574,33.8129,10.36,66.2
198,Velen,0,DE,1613158515,53,51.9,6.9833,7.0,21.99
199,Bredasdorp,0,ZA,1613158516,73,-34.5322,20.0403,6.91,71.6
200,Chu,98,KZ,1613158517,92,43.5983,73.7614,1.95,33.94
201,Pimentel,0,PE,1613158519,48,-6.8367,-79.9342,13.8,87.8
202,Muros,100,ES,1613158520,79,42.7762,-9.0603,7.0,55.99
203,Mehamn,0,NO,1613158521,73,71.0357,27.8492,12.66,14.0
204,Mana,65,GF,1613158522,85,5.6592,-53.7767,13.02,78.85
205,Bethel,90,US,1613158523,28,41.3712,-73.414,10.36,27.0
206,Christchurch,90,NZ,1613158525,87,-43.5333,172.6333,4.61,61.0
207,Bambous Virieux,40,MU,1613158526,83,-20.3428,57.7575,11.5,77.0
208,Karangampel,100,ID,1613158527,88,-6.4622,108.4519,10.2,77.72
209,Nome,90,US,1613158493,80,64.5011,-165.4064,24.16,28.4
210,Mahon,20,ES,1613158529,88,39.8885,4.2658,6.91,55.4
211,Fort Dodge,1,US,1613158313,54,42.4975,-94.168,10.36,-4.0
212,Ucluelet,90,CA,1613158413,38,48.9329,-125.5528,12.66,35.6
213,Talnakh,100,RU,1613158533,86,69.4865,88.3972,1.1,-20.79
214,Comodoro Rivadavia,0,AR,1613158534,60,-45.8667,-67.5,13.8,68.0
215,Maceió,40,BR,1613158419,74,-9.6658,-35.7353,13.8,82.4
216,Kyzyl,6,RU,1613158536,83,51.7,94.45,0.47,-18.96
217,Saint Paul Harbor,90,US,1613158538,80,57.79,-152.4072,25.32,33.8
218,Nahrin,94,AF,1613158539,42,36.0649,69.1334,1.52,49.23
219,Galle,82,LK,1613158540,82,6.0367,80.217,3.98,75.76
220,Iranshahr,0,IR,1613158541,13,27.2025,60.6848,3.18,64.4
221,Gamba,100,GA,1613158542,83,-2.65,10.0,6.4,79.97
222,Bubaque,0,GW,1613158544,76,11.2833,-15.8333,13.62,77.61
223,Vao,46,NC,1613158465,77,-22.6667,167.4833,4.97,77.92
224,Contai,2,IN,1613158546,84,21.7786,87.7536,7.67,66.92
225,Turukhansk,0,RU,1613158547,79,65.8167,87.9833,6.55,-28.21
226,Hamilton,75,US,1613158539,55,39.1834,-84.5333,10.36,33.01
227,Pontes e Lacerda,100,BR,1613158468,88,-15.2261,-59.3353,5.3,80.47
228,Dunedin,100,NZ,1613158335,78,-45.8742,170.5036,14.0,57.99
229,Dikson,100,RU,1613158553,88,73.5069,80.5464,11.14,-24.88
230,Aleksandrov Gay,100,RU,1613158554,92,50.147,48.5704,11.74,33.76
231,Salina Cruz,0,MX,1613158555,57,16.1667,-95.2,14.14,84.24
232,Zhigansk,95,RU,1613158346,90,66.7697,123.3711,8.95,-8.64
233,Mikhaylovka,97,RU,1613158558,94,50.06,43.2379,13.0,39.99
234,Pecos,90,US,1613158389,93,31.4229,-103.4932,11.5,24.8
235,Aswān,0,EG,1613158561,24,24.0934,32.907,14.5,66.9
236,Pangnirtung,40,CA,1613158562,84,66.1451,-65.7125,2.1,-5.8
237,Port Lincoln,0,AU,1613158564,86,-34.7333,135.8667,5.75,59.61
238,Hambantota,0,LK,1613158343,100,6.1241,81.1185,4.61,75.2
239,Chesley,99,CA,1613158566,74,44.2966,-81.0952,6.87,17.01
240,Ivanjica,0,RS,1613158568,63,43.5803,20.2311,4.61,21.2
241,Tura,0,IN,1613158569,44,25.5198,90.2201,1.5,61.16
242,Tangkak,20,MY,1613158571,88,2.2673,102.5453,6.91,77.0
243,Bantry,90,IE,1613158573,87,51.6833,-9.45,21.85,42.8
244,San Patricio,90,US,1613158574,93,28.017,-97.5169,17.27,37.99
245,Anchorage,1,US,1613158295,79,61.2181,-149.9003,3.44,23.0
246,Vangaindrano,100,MG,1613158562,90,-23.35,47.6,2.68,74.89
247,Itainópolis,21,BR,1613158578,48,-7.4469,-41.4783,6.62,89.98
248,Dingle,97,PH,1613158579,89,10.9995,122.6711,3.22,75.06
249,Najrān,0,SA,1613158580,34,17.4924,44.1277,2.3,64.4
250,Kahului,20,US,1613158581,56,20.8947,-156.47,3.44,73.4
251,Leer,0,DE,1613158582,80,53.2316,7.461,8.39,21.0
252,Umm Kaddadah,0,SD,1613158584,20,13.6017,26.6876,13.47,75.97
253,Tianmen,0,CN,1613158585,83,30.6516,113.1603,2.75,53.01
254,Bathsheba,40,BB,1613158586,61,13.2167,-59.5167,21.85,80.6
255,Walvis Bay,99,NA,1613158587,83,-22.9575,14.5053,6.91,70.0
256,Padre Bernardo,100,BR,1613158588,88,-15.35,-48.5,3.83,73.18
257,Shahrud,0,IR,1613158590,55,36.4182,54.9763,4.83,45.48
258,Jamame,99,SO,1613158591,81,0.0722,42.7506,12.06,76.19
259,Mossamedes,77,AO,1613158592,74,-15.1961,12.1522,4.03,75.33
260,Esim,12,GH,1613158389,83,4.8699,-2.2405,9.33,81.73
261,Obo,10,CF,1613158595,21,5.3998,26.4869,3.62,78.1
262,St. George's,40,GD,1613158336,65,12.0564,-61.7485,25.32,84.2
263,Ayr,0,GB,1613158597,64,55.4627,-4.6339,23.02,32.0
264,Marabu,40,MY,1613158598,100,4.4148,114.0089,3.44,77.0
265,Fonte Boa,84,BR,1613158600,87,-2.4959,-66.2662,2.89,83.46
266,Constitución,10,CL,1613158601,70,-35.3333,-72.4167,11.41,67.39
267,Pidhaytsi,75,UA,1613158602,73,49.2685,25.1334,20.13,14.0
268,Staraya Russa,100,RU,1613158603,92,57.9944,31.3608,9.1,2.53
269,Naze,89,JP,1613158604,88,28.3667,129.4833,18.97,62.71
270,Alta Floresta,75,BR,1613158605,89,-9.8756,-56.0861,4.61,78.8
271,Sirte,0,LY,1613158607,64,31.2089,16.5887,6.4,59.14
272,Dubai,0,AE,1613158491,83,25.2582,55.3047,2.3,69.8
273,Los Llanos de Aridane,40,ES,1613158562,60,28.6585,-17.9182,10.36,68.0
274,Matveyevka,0,RU,1613158610,86,52.15,56.1833,8.95,30.2
275,Klaksvík,75,FO,1613158611,65,62.2266,-6.589,21.85,37.4
276,Amapá,72,BR,1613158613,92,1.0,-52.0,3.71,80.38
277,Mmathubudukwane,0,BW,1613158614,73,-24.6,26.4333,1.14,73.4
278,São Gabriel da Cachoeira,40,BR,1613158615,58,-0.1303,-67.0892,9.22,91.4
279,Kilindoni,100,TZ,1613158616,83,-7.9139,39.6668,15.37,81.63
280,Poum,0,NC,1613158618,70,-20.2333,164.0167,6.98,79.14
281,Nesna,40,NO,1613158619,87,66.1967,13.0213,12.66,35.6
282,Coyhaique,0,CL,1613158325,29,-45.5752,-72.0662,6.91,75.2
283,Gibara,40,CU,1613158621,33,21.1097,-76.1317,6.91,87.8
284,Imbituba,75,BR,1613158623,94,-28.24,-48.6703,6.91,73.4
285,Presidencia Roque Sáenz Peña,93,AR,1613158624,34,-26.7852,-60.4388,3.0,91.0
286,Shelburne,90,CA,1613158625,44,44.0787,-80.2041,5.75,12.99
287,Acaraú,85,BR,1613158626,72,-2.8856,-40.12,15.5,83.12
288,San Miguel de Tucumán,75,AR,1613158387,65,-26.8241,-65.2226,10.36,78.8
289,Moscow,90,RU,1613158488,78,55.7522,37.6156,17.9,7.0
290,Cabedelo,20,BR,1613158630,70,-6.9811,-34.8339,14.97,86.0
291,Ushibukamachi,55,JP,1613158631,68,32.1906,130.0228,6.93,55.09
292,Charlestown,100,AU,1613158632,96,-32.95,151.6667,6.44,73.99
293,Kutum,27,SD,1613158634,28,14.2,24.6667,7.2,63.41
294,Mahébourg,40,MU,1613158635,83,-20.4081,57.7,11.5,77.0
295,Kovdor,84,RU,1613158636,94,67.5662,30.4758,2.98,0.41
296,Channel-Port aux Basques,100,CA,1613158637,95,47.5702,-59.1367,17.34,28.65
297,Ulladulla,90,AU,1613158377,100,-35.35,150.4667,14.97,66.2
298,Almeirim,49,BR,1613158640,69,-1.5233,-52.5817,6.17,86.22
299,Puerto Escondido,20,MX,1613158606,74,15.85,-97.0667,12.66,86.0
300,Lucea,20,JM,1613158642,70,18.451,-78.1736,23.02,84.2
301,Bengkulu,98,ID,1613158643,81,-3.8004,102.2655,3.76,77.36
302,Lorengau,100,PG,1613158644,75,-2.0226,147.2712,8.41,81.81
303,Avera,90,US,1613158360,82,33.194,-82.5271,8.05,46.4
304,Davila,75,PH,1613158647,88,18.4726,120.5763,3.44,69.8
305,Ko Samui,0,TH,1613158648,81,9.5357,99.9357,11.59,79.79
306,Letlhakeng,1,BW,1613158385,63,-24.0944,25.0298,4.23,72.07
307,Masumbwe,100,TZ,1613158650,88,-3.6333,32.1833,2.84,67.17
308,Rio Grande,40,BR,1613158652,73,-32.035,-52.0986,13.8,78.8
309,Vredendal,0,ZA,1613158653,77,-31.6683,18.5012,12.46,67.68
310,Touros,40,BR,1613158654,66,-5.1989,-35.4608,14.97,86.0
311,Saint-Augustin,47,CA,1613158410,93,51.226,-58.6502,12.37,25.18
312,Severodvinsk,75,RU,1613158656,69,64.5635,39.8302,2.24,-22.0
313,Petropavlovsk-Kamchatskiy,75,RU,1613158658,72,53.0452,158.6483,6.71,10.4
314,Kamień Pomorski,20,PL,1613158659,86,53.9685,14.7726,5.75,28.99
315,Brae,75,GB,1613158660,56,60.3964,-1.353,24.16,37.4
316,Suoyarvi,0,RU,1613158661,92,62.0833,32.35,3.38,-1.8
317,Namatanai,58,PG,1613158468,82,-3.6667,152.4333,4.63,79.75
318,Oltu,0,TR,1613158664,73,40.5498,42.0013,5.86,35.8
319,Baghdad,0,IQ,1613158665,58,33.3406,44.4009,1.14,57.2
320,Cabo San Lucas,1,MX,1613158419,60,22.8909,-109.9124,11.5,72.0
321,Minsk,90,BY,1613158667,78,53.9,27.5667,17.9,8.6
322,Beloha,100,MG,1613158453,75,-25.1667,45.05,11.3,75.9
323,Longyearbyen,90,SJ,1613158670,79,78.2186,15.6401,18.41,10.4
324,Newport,7,GB,1613158671,71,51.5877,-2.9984,1.99,30.99
325,Tengzhou,0,CN,1613158672,93,35.0771,117.1518,6.89,44.83
326,Ngorongoro,100,TZ,1613158674,98,-3.2397,35.4875,2.21,55.35
327,Potsdam,0,DE,1613158675,79,52.3989,13.0657,6.91,21.2
328,Caravelas,0,BR,1613158676,69,-17.7125,-39.2481,8.3,80.73
329,Pisco,0,PE,1613158677,54,-13.7,-76.2167,18.41,84.2
330,Viking,100,CA,1613158679,71,53.1001,-111.7684,9.22,-5.8
331,Solano,1,US,1613158680,42,38.2333,-121.9511,4.61,64.4
332,Chāndbāli,100,IN,1613158681,90,20.7833,86.7667,6.82,66.18
333,Hanna,100,CA,1613158682,73,51.6334,-111.9018,8.99,-7.01
334,George Town,20,MY,1613158684,83,5.4112,100.3354,4.94,80.6
335,Kargil,70,IN,1613158685,72,34.5667,76.1,1.72,-1.08
336,Fort Nelson,1,CA,1613158686,77,58.8053,-122.7002,1.01,-9.4
337,Mundo Nuevo (Ojo de Agua),98,MX,1613158687,86,18.7,-95.5,22.26,72.41
338,Miraflores,40,MX,1613158689,19,19.2167,-98.8083,20.71,68.0
339,Pochutla,20,MX,1613158690,51,15.7432,-96.4661,17.27,87.01
340,Diffa,0,NE,1613158692,21,13.3154,12.6113,5.28,71.28
341,Puerto Suárez,75,BO,1613158693,78,-18.95,-57.8,3.91,80.6
342,Baykit,99,RU,1613158694,82,61.67,96.37,0.83,-21.66
343,Opuwo,59,NA,1613158696,83,-18.0607,13.84,10.78,66.16
344,Meridian,90,US,1613158697,100,43.6121,-116.3915,4.61,33.01
345,Alice Springs,90,AU,1613158698,100,-23.7,133.8833,10.36,66.2
346,Cayenne,75,GF,1613158699,94,4.9333,-52.3333,11.5,78.8
347,Kaitangata,80,NZ,1613158700,90,-46.2817,169.8464,1.99,53.01
348,Severnoye,0,RU,1613158702,86,56.3491,78.3619,4.63,-25.6
349,Mujiayingzi,14,CN,1613158703,87,42.1167,118.7833,3.87,28.08
350,Bogatoye,100,RU,1613158704,96,53.0601,51.3325,8.57,33.4
351,Otane,0,NZ,1613158705,78,-39.8833,176.6333,2.35,60.01
352,Pitimbu,20,BR,1613158707,70,-7.4706,-34.8086,14.97,86.0
353,Lüderitz,0,NA,1613158708,76,-26.6481,15.1594,5.7,67.51
354,Fichē,55,ET,1613158709,56,9.8,38.7333,5.12,55.29
355,Bariloche,20,AR,1613158689,21,-41.1456,-71.3082,12.66,86.0
356,Hong Kong,43,HK,1613158686,79,22.2855,114.1577,6.24,64.0
357,Cidreira,100,BR,1613158663,78,-30.1811,-50.2056,13.91,77.49
358,Wewak,100,PG,1613158714,88,-3.5534,143.6268,7.43,77.92
359,Thanh Pho Uong Bi,0,VN,1613158715,88,21.0333,106.7833,1.28,62.6
360,Dalnerechensk,90,RU,1613158716,98,45.9339,133.7225,6.42,26.13
361,Chanika,99,TZ,1613158717,97,-5.4167,38.0167,2.84,68.14
362,Malakanagiri,52,IN,1613158719,68,18.35,81.9,1.25,64.02
363,Port Hardy,75,CA,1613158720,47,50.6996,-127.4199,24.16,33.8
364,Ilhabela,100,BR,1613158629,81,-23.7781,-45.3581,2.21,77.72
365,Havelock,90,US,1613158722,93,34.8791,-76.9013,13.8,46.99
366,Pareora,51,NZ,1613158724,95,-44.4871,171.2132,6.73,55.0
367,Kishtwār,100,IN,1613158698,47,33.3167,75.7667,4.59,45.23
368,Kiryat Gat,0,IL,1613158726,100,31.61,34.7642,4.03,59.0
369,Popondetta,92,PG,1613158727,93,-8.7537,148.2534,1.9,73.56
370,Sola,100,VU,1613158728,82,-13.8833,167.55,12.8,80.17
371,Olhão,0,PT,1613158730,82,37.0286,-7.8411,3.44,59.0
372,Airai,76,TL,1613158692,100,-8.9266,125.4092,0.27,61.25
373,Marawi,97,PH,1613158732,91,7.9986,124.2928,4.0,75.0
374,Tamarin,40,MU,1613158733,83,-20.3256,57.3706,11.5,77.0
375,São José da Coroa Grande,6,BR,1613158734,74,-8.8978,-35.1478,11.79,80.87
376,Sabla,0,NG,1613158736,14,12.7525,4.7077,10.38,80.22
377,Ørnes,75,NO,1613158737,86,66.8689,13.7078,9.22,33.8
378,Bend,90,US,1613158738,68,44.0582,-121.3153,4.61,32.0
379,Barcelos,20,PT,1613158740,94,41.5388,-8.6151,3.44,54.0
380,Pemangkat,100,ID,1613158742,90,1.1667,108.9667,10.45,76.78
381,Boa Vista,90,BR,1613158743,74,2.8197,-60.6733,8.05,80.6
382,Requena,0,ES,1613158744,42,39.4883,-1.1004,13.8,64.4
383,Robe,16,AU,1613158745,77,-37.1833,139.75,12.93,60.48
384,Rundu,100,NA,1613158746,87,-17.9333,19.7667,5.23,67.32
385,General Pico,100,AR,1613158748,31,-35.6566,-63.7568,3.29,86.99
386,Bosaso,71,SO,1613158473,60,11.2842,49.1816,3.87,72.84
387,Lebu,7,CL,1613158750,76,-37.6167,-73.65,13.98,63.91
388,Grindavik,75,IS,1613158751,65,63.8424,-22.4338,27.63,41.0
389,Mandalgovi,7,MN,1613158753,81,45.7625,106.2708,10.38,4.89
390,Fare,96,PF,1613158754,71,-16.7,-151.0167,13.15,81.7
391,Almoradí,0,ES,1613158755,37,38.1088,-0.792,11.5,66.2
392,Teahupoo,75,PF,1613158756,69,-17.8333,-149.2667,13.8,82.4
393,Belaya Gora,45,RU,1613158757,79,68.5333,146.4167,3.98,-25.02
394,Øksfjord,90,NO,1613158759,86,70.2396,22.3479,20.47,27.0
395,Sungai Raya,93,ID,1613158760,92,0.7,108.9,8.19,76.1
396,Puerto Madryn,13,AR,1613158463,40,-42.7692,-65.0385,9.24,80.28
397,Khatanga,85,RU,1613158763,85,71.9667,102.5,7.38,-27.94
398,Aksha,0,RU,1613158765,79,50.2814,113.2867,11.56,-6.61
399,Kavaratti,98,IN,1613158690,58,10.5669,72.642,6.17,81.52
400,Caucayá,49,CO,1613158767,32,-0.1934,-74.7819,4.7,95.0
401,Nānākuli,75,US,1613158768,60,21.3906,-158.1547,5.75,75.2
402,Province of Trapani,20,IT,1613158769,100,37.8333,12.6667,8.05,53.6
403,Bay Roberts,90,CA,1613158771,93,47.5999,-53.2648,18.41,32.0
404,Marrakesh,0,MA,1613158590,45,31.6315,-8.0083,5.75,66.2
405,Esmeraldas,75,BR,1613158773,94,-19.7625,-44.3139,6.91,71.6
406,Liverpool,90,GB,1613158535,64,53.4106,-2.9779,19.57,32.0
407,Sabha,0,LY,1613158775,31,27.0377,14.4283,11.05,61.61
408,Cockburn Town,1,TC,1613158777,78,21.4612,-71.1419,20.71,77.5
409,Vung Tau,0,VN,1613158778,85,10.346,107.0843,15.86,72.46
410,Yarmouth,1,US,1613158779,58,41.7057,-70.2286,11.5,25.0
411,Yanam,100,IN,1613158781,78,16.7333,82.2167,0.45,66.33
412,Orlik,21,RU,1613158782,73,52.5178,99.825,1.99,-24.84
413,Dongkan,0,CN,1613158784,87,33.9997,119.8308,5.14,42.94
414,Sept-Îles,90,CA,1613158498,54,50.2001,-66.3821,8.05,24.01
415,Alihe,4,CN,1613158786,89,50.5667,123.7167,4.7,2.17
416,Krasnogvardeyskiy,93,RU,1613158787,91,57.3793,62.3195,4.45,-5.84
417,Monrovia,0,LR,1613158697,87,6.3005,-10.7969,7.94,80.47
418,Djambala,45,CG,1613158790,82,-2.5447,14.7533,4.56,73.92
419,Bukachacha,100,RU,1613158791,87,52.9833,116.9167,3.87,-5.37
420,Baharly,0,TM,1613158792,51,38.4362,57.4316,6.96,53.19
421,Cutervo,98,PE,1613158794,85,-6.379,-78.8157,3.94,60.66
422,Nyrob,100,RU,1613158795,93,60.733,56.7202,2.37,1.63
423,Manta,40,EC,1613158796,78,-0.95,-80.7333,8.05,82.4
424,Yurino,75,RU,1613158797,85,56.2942,46.3039,2.24,12.2
425,Tongchuanshi,100,CN,1613158798,52,35.0806,109.0897,3.22,46.98
426,San Cristobal,40,VE,1613158800,43,7.7669,-72.225,6.91,91.4
427,Okato,49,NZ,1613158801,76,-39.2,173.8833,8.99,57.0
428,Ionia,1,US,1613158804,63,42.9873,-85.0711,4.7,26.01
429,Tessalit,0,ML,1613158805,16,20.1986,1.0114,5.12,72.07
430,Rafai,0,CF,1613158807,24,4.95,23.9167,1.23,76.03
431,Kawalu,100,ID,1613158808,91,-7.3817,108.2082,1.79,72.52
432,Batasan,38,PH,1613158809,81,12.7667,120.7833,3.67,78.93
433,Bilma,33,NE,1613158677,21,18.6853,12.9164,3.2,68.59
434,Kurchum,89,KZ,1613158811,95,48.5722,83.6542,0.83,8.17
435,Mingguang,2,CN,1613158813,94,32.7802,117.9638,6.51,46.67
436,East London,50,ZA,1613158814,78,-33.0153,27.9116,13.87,79.0
437,Tamandaré,9,BR,1613158815,73,-8.7597,-35.1047,11.34,81.0
438,Salinópolis,100,BR,1613158816,87,-0.6136,-47.3561,10.65,80.2
439,Nara,23,JP,1613158818,86,34.6851,135.8049,3.51,48.99
440,Fougamou,100,GA,1613158819,92,-1.2154,10.5838,2.62,76.23
441,Lagoa,19,PT,1613158820,75,39.05,-27.9833,24.92,58.8
442,Saint Anthony,1,US,1613158821,49,45.0205,-93.218,10.36,-2.99
443,Idaho Falls,90,US,1613158822,79,43.4666,-112.0341,3.44,21.99
444,Middle Island,90,US,1613158824,31,40.8843,-72.9373,9.22,30.0
445,Demidov,100,RU,1613158825,94,55.2706,31.515,18.68,8.55
446,Lhokseumawe,1,ID,1613158826,84,5.1801,97.1507,3.62,77.56
447,West Bay,20,KY,1613158827,61,19.3667,-81.4167,14.97,84.2
448,Tigil',0,RU,1613158828,79,57.8,158.6667,3.94,-12.05
449,San Jose,20,US,1613158814,67,37.3394,-121.895,9.22,60.01
450,Gunjur,0,GM,1613158831,41,13.2019,-16.7339,5.75,80.6
451,Roald,0,NO,1613158832,43,62.5833,6.1333,12.66,28.4
452,Porbandar,0,IN,1613158833,65,21.6422,69.6093,6.4,65.88
453,Yerbogachën,14,RU,1613158834,85,61.2767,108.0108,3.6,-27.54
454,Soyo,96,AO,1613158835,80,-6.1349,12.3689,7.31,80.4
455,Jalu,0,LY,1613158837,42,29.0331,21.5482,7.31,56.82
456,Tongliao,99,CN,1613158838,90,43.6125,122.2653,5.86,17.6
457,Hofn,75,IS,1613158839,70,64.2539,-15.2082,17.27,39.2
458,Zhaoyuan,0,CN,1613158840,99,37.3592,120.3964,7.56,42.01
459,Kerchevskiy,100,RU,1613158842,94,59.946,56.2884,3.4,2.5
460,San Julián,29,MX,1613158843,23,21.0167,-102.1667,15.77,67.46
461,Mareeba,75,AU,1613158844,94,-17.0,145.4333,8.05,75.2
462,Amzya,100,RU,1613158845,97,56.2354,54.3868,4.97,16.23
463,Katsuura,75,JP,1613158847,66,35.1333,140.3,5.75,48.2
464,Yeniseysk,100,RU,1613158848,88,58.4497,92.1703,4.03,-14.69
465,Huainan,0,CN,1613158850,94,32.6264,116.9969,6.69,47.61
466,Zhongxing,0,CN,1613158851,93,33.7039,118.6792,6.33,44.35
467,Aksarka,100,RU,1613158852,86,66.5606,67.7975,5.28,-21.21
468,Digoin,90,FR,1613158854,69,46.4812,3.9795,9.22,28.99
469,Kościan,88,PL,1613158855,75,52.0883,16.6487,13.78,23.0
470,Harper,98,LR,1613158856,87,4.375,-7.7169,6.78,79.84
471,Pierre,20,US,1613158857,46,44.3683,-100.351,10.36,-0.4
472,Sambava,100,MG,1613158858,89,-14.2667,50.1667,7.16,77.25
473,Goderich,100,CA,1613158860,73,43.7501,-81.7165,8.05,15.8
474,Vryburg,59,ZA,1613158861,44,-26.9566,24.7284,6.17,74.35
475,Anadyr,100,RU,1613158862,68,64.75,177.4833,20.13,-29.2
476,Kasongo,100,CD,1613158863,96,-4.45,26.6667,1.5,70.27
477,Batié,0,BF,1613158865,14,9.8833,-2.9167,4.07,85.12
478,Zvenigovo,75,RU,1613158866,85,55.9742,48.0181,2.24,12.2
479,Tokur,100,RU,1613158867,96,53.1333,132.9,3.76,5.54
480,Raahe,90,FI,1613158868,93,64.6833,24.4833,6.91,24.8
481,Linhares,83,BR,1613158869,71,-19.3911,-40.0722,7.74,79.52
482,Vestmanna,75,FO,1613158871,65,62.1564,-7.1664,21.85,37.4
483,Puerto Ayacucho,89,VE,1613158872,42,5.6639,-67.6236,5.68,92.82
484,Port Hedland,40,AU,1613158873,88,-20.3167,118.5667,8.99,77.0
485,Port Blair,69,IN,1613158874,78,11.6667,92.75,8.01,78.31
486,Okhotsk,100,RU,1613158875,92,59.3833,143.3,3.58,13.71
487,Taksimo,100,RU,1613158876,82,56.3444,114.8794,4.63,-7.71
488,Tortosa,80,ES,1613158878,62,40.8125,0.5216,13.0,59.0
489,Dwārka,0,IN,1613158879,72,22.2394,68.9678,5.95,69.51
490,Garoowe,88,SO,1613158880,66,8.4054,48.4845,9.64,65.53
491,Charters Towers,40,AU,1613158882,79,-20.1,146.2667,8.37,70.63
492,Matadi,100,CD,1613158883,86,-5.8167,13.45,7.9,78.17
493,Sovetskiy,100,RU,1613158884,90,61.3614,63.5842,4.36,-11.47
494,Maragogi,4,BR,1613158885,74,-9.0122,-35.2225,11.59,80.73
495,Colón,78,PA,1613158886,62,9.3592,-79.9014,13.0,89.01
496,Deputatsky,100,RU,1613158888,90,69.3,139.9,2.84,-13.27
497,Chetwayi,20,IN,1613158889,88,10.5333,76.05,2.3,77.0
498,Vostok,100,RU,1613158890,99,46.4856,135.8833,4.36,23.83
499,Morwell,10,AU,1613158891,90,-38.2333,146.4,2.73,53.01
500,Villacarrillo,20,ES,1613158892,86,38.1156,-3.0848,1.5,45.28
501,Igunga,100,TZ,1613158880,89,-4.2833,33.8833,4.47,67.64
502,Upata,58,VE,1613158895,68,8.0086,-62.3989,5.99,86.0
503,Puri,100,IN,1613158896,70,19.8,85.85,11.72,74.03
504,Scarborough,83,GB,1613158897,63,54.2797,-0.4044,7.0,30.0
505,Urucará,60,BR,1613158898,62,-2.5364,-57.76,3.94,89.44
506,Flinders,97,AU,1613158900,93,-34.5833,150.8552,7.0,69.01
507,Aripuanã,42,BR,1613158622,71,-9.1667,-60.6333,1.41,86.52
508,Poienile Izei,40,RO,1613158902,67,47.7,24.1167,12.66,17.6
509,Cabra,0,ES,1613158903,71,37.4725,-4.4421,2.8,55.4
510,Oktyabr'skiy,100,RU,1613158904,98,54.4815,53.471,7.45,30.81
511,Mapiripán,59,CO,1613158906,36,2.8892,-72.1256,8.61,93.33
512,Kakhovka,100,UA,1613158907,88,46.8137,33.487,19.8,15.6
513,Korsakovo,100,RU,1613158908,96,53.2677,37.3569,20.04,12.58
514,Söderhamn,56,SE,1613158909,70,61.3037,17.0592,1.99,19.99
515,Lodja,32,CD,1613158910,85,-3.4833,23.4333,2.04,73.96
516,Kysyl-Syr,100,RU,1613158912,88,63.8986,122.7617,5.68,-13.04
517,Nizhnyaya Omka,0,RU,1613158913,85,55.4338,74.9426,6.6,-20.94
518,North Bend,90,US,1613158914,93,43.4065,-124.2243,12.66,51.8
519,Karligan,84,PH,1613158915,87,14.975,122.0456,10.98,76.24
520,Tecozautla,40,MX,1613158916,18,20.5333,-99.6333,11.5,68.0
521,Izhma,100,RU,1613158918,90,65.0083,53.9113,1.21,-9.2
522,Ormara,0,PK,1613158919,64,25.2088,64.6357,7.27,70.0
523,Santa,9,PH,1613158920,84,17.486,120.4348,3.06,69.64
524,Quatre Cocos,40,MU,1613158921,83,-20.2078,57.7625,11.5,77.0
525,Poyarkovo,0,RU,1613158922,91,49.6,128.6833,10.29,7.75
526,Ahlat,100,TR,1613158924,89,38.7518,42.4814,3.38,28.63
527,Vila,100,PT,1613158926,91,42.0304,-8.1588,8.99,48.99
528,Broken Hill,0,AU,1613158927,59,-31.95,141.4333,11.5,60.8
529,Annau,0,TM,1613158929,76,37.8876,58.516,4.61,44.6
530,Stokmarknes,90,NO,1613158930,100,68.5646,14.9108,8.05,32.0
531,Celestún,9,MX,1613158703,67,20.8667,-90.4,11.16,80.96
532,Kumul,39,CN,1613158932,84,42.8,93.45,2.35,30.7
533,Binka,12,IN,1613158933,39,21.0333,83.8,1.57,63.34
534,Alofi,96,NU,1613158935,94,-19.0595,-169.9187,6.91,78.8
535,Oistins,40,BB,1613158929,61,13.0667,-59.5333,21.85,80.6
536,Rocha,100,UY,1613158937,90,-34.4833,-54.3333,3.96,70.38
537,Tateyama,75,JP,1613158938,66,34.9833,139.8667,5.75,48.2
538,Tiznit Province,32,MA,1613158939,67,29.5833,-9.5,0.83,63.03
539,Atherton,48,GB,1613158941,52,53.5237,-2.4935,15.01,32.0
540,Emerald,6,AU,1613158942,83,-23.5333,148.1667,3.44,69.8
541,Tommot,100,RU,1613158943,88,58.9564,126.2925,8.01,-6.74
542,Zhirnovsk,100,RU,1613158944,94,50.9845,44.7735,17.98,35.87
543,Rome,90,US,1613158925,38,43.2128,-75.4557,4.9,16.0
544,Aiquile,88,BO,1613158947,60,-18.2041,-65.1807,11.43,68.43
545,Fuling,2,CN,1613158948,62,29.7022,107.3919,3.15,57.29
546,Eston,75,CA,1613158949,64,51.1501,-108.7514,11.5,-9.4
547,Vidim,100,RU,1613158950,89,56.4088,103.1106,4.65,-11.7
548,Fengzhen,100,CN,1613158952,74,40.4394,113.1536,2.62,31.37
549,Cumanayagua,40,CU,1613158953,54,22.1494,-80.2022,11.5,86.0
550,Kuala Terengganu,20,MY,1613158954,83,5.3302,103.1408,3.44,78.8
551,Kavieng,86,PG,1613158955,75,-2.5744,150.7967,8.08,82.58
552,Taoudenni,0,ML,1613158957,15,22.6783,-3.9836,12.5,74.61
553,Aketi,0,CD,1613158958,34,2.7388,23.7833,0.85,77.77
554,Forsytheganj,100,BY,1613158959,95,52.6333,29.7333,18.7,9.66
555,Tibagi,100,BR,1613158960,89,-24.5094,-50.4136,0.98,67.19
556,Lebyazh'ye,60,RU,1613158961,92,55.2689,66.4947,6.76,-3.5
557,Birjand,0,IR,1613158963,22,32.8663,59.2211,6.91,39.2
558,Severo-Kuril'sk,76,RU,1613158964,95,50.6789,156.125,11.97,27.57
559,Ulaangom,93,MN,1613158932,86,49.9811,92.0667,2.62,-8.14
560,Ardakān,0,IR,1613158966,25,32.31,54.0175,4.61,51.8
561,Syracuse,40,IT,1613158968,77,37.0881,15.2792,5.75,57.2
562,Homer,90,US,1613158969,69,59.6425,-151.5483,8.05,34.0
563,Makkah al Mukarramah,0,SA,1613158970,57,21.4267,39.8261,3.2,77.0
564,Rājsamand,0,IN,1613158971,33,25.0667,73.8833,1.45,60.12
565,Half Moon Bay,40,US,1613158781,82,37.4636,-122.4286,16.11,59.0
566,Baghmara,12,IN,1613158974,47,23.795,86.2085,2.51,65.39
567,La Reforma,1,MX,1613158975,44,25.0833,-108.05,10.36,78.01
568,Bar Harbor,1,US,1613158976,46,44.3876,-68.2039,6.91,24.8
569,Virginia Beach,90,US,1613158977,87,36.8529,-75.978,12.66,41.0
570,General Roca,0,AR,1613158742,22,-39.0333,-67.5833,11.5,93.2
571,Tsiroanomandidy,100,MG,1613158980,94,-18.7667,46.0333,5.32,67.42
572,Abalak,92,RU,1613158981,89,58.1286,68.5944,5.91,-11.45
573,Moratuwa,0,LK,1613158982,88,6.773,79.8816,6.91,75.2
